{
  "type": "FeatureCollection",
  "generator": "overpass-turbo",
  "copyright": "The data included in this document is from www.openstreetmap.org. The data is made available under ODbL.",
  "timestamp": "2026-03-24T03:17:31Z",
  "features": [
    {
      "type": "Feature",
      "properties": {
        "@id": "way/170405832",
        "building": "yes",
        "height": "35",
        "level": "8",
        "name": "농협중앙회 용산별관",
        "shop": "supermarket",
        "start_date": "1988",
        "@geometry": "center"
      },
      "geometry": {
        "type": "Point",
        "coordinates": [
          126.9647329,
          37.5331417
        ]
      },
      "id": "way/170405832"
    },
    {
      "type": "Feature",
      "properties": {
        "@id": "way/178254713",
        "building": "retail",
        "name": "GS수퍼마켓 관악점",
        "name:en": "GS Supermarket Gwanak",
        "name:ja": "GSスーパーマーケット 冠岳店",
        "name:ko": "GS수퍼마켓 관악점",
        "shop": "supermarket",
        "@geometry": "center"
      },
      "geometry": {
        "type": "Point",
        "coordinates": [
          126.9489951,
          37.4793355
        ]
      },
      "id": "way/178254713"
    },
    {
      "type": "Feature",
      "properties": {
        "@id": "way/239580585",
        "addr:city": "서울특별시",
        "addr:district": "노원구",
        "addr:housename": "롯데마트 중계점",
        "addr:street": "노원로",
        "building": "yes",
        "name": "롯데마트 중계점",
        "name:ja": "ロッテマート 中渓店",
        "operator": "롯데쇼핑",
        "shop": "supermarket",
        "@geometry": "center"
      },
      "geometry": {
        "type": "Point",
        "coordinates": [
          127.070959,
          37.6467595
        ]
      },
      "id": "way/239580585"
    },
    {
      "type": "Feature",
      "properties": {
        "@id": "way/239710144",
        "addr:city": "서울특별시",
        "addr:district": "중랑구",
        "addr:subdistrict": "망우동",
        "brand": "E-Mart",
        "brand:en": "E-Mart",
        "brand:ko": "이마트",
        "brand:wikidata": "Q490371",
        "brand:wikipedia": "ko:이마트",
        "building": "yes",
        "name": "E-Mart",
        "name:en": "E-Mart",
        "name:ko": "이마트",
        "shop": "supermarket",
        "@geometry": "center"
      },
      "geometry": {
        "type": "Point",
        "coordinates": [
          127.0934932,
          37.5964535
        ]
      },
      "id": "way/239710144"
    },
    {
      "type": "Feature",
      "properties": {
        "@id": "way/252891438",
        "building": "yes",
        "name": "서부식자재마트",
        "name:zh": "西部超市",
        "shop": "supermarket",
        "@geometry": "center"
      },
      "geometry": {
        "type": "Point",
        "coordinates": [
          126.8671952,
          37.5100196
        ]
      },
      "id": "way/252891438"
    },
    {
      "type": "Feature",
      "properties": {
        "@id": "way/263590806",
        "building": "yes",
        "name": "현대화마트",
        "opening_hours": "08:40~23:00",
        "shop": "supermarket",
        "@geometry": "center"
      },
      "geometry": {
        "type": "Point",
        "coordinates": [
          126.9116354,
          37.6029979
        ]
      },
      "id": "way/263590806"
    },
    {
      "type": "Feature",
      "properties": {
        "@id": "way/294742285",
        "addr:city": "서울특별시",
        "addr:country": "KR",
        "addr:district": "동작구",
        "addr:subdistrict": "상도동",
        "building": "yes",
        "name": "홈플러스익스프레스",
        "name:ko": "홈플러스익스프레스",
        "shop": "supermarket",
        "@geometry": "center"
      },
      "geometry": {
        "type": "Point",
        "coordinates": [
          126.9438441,
          37.4970742
        ]
      },
      "id": "way/294742285"
    },
    {
      "type": "Feature",
      "properties": {
        "@id": "way/313985692",
        "building": "yes",
        "name": "홈마트",
        "shop": "supermarket",
        "@geometry": "center"
      },
      "geometry": {
        "type": "Point",
        "coordinates": [
          126.837245,
          37.5342653
        ]
      },
      "id": "way/313985692"
    },
    {
      "type": "Feature",
      "properties": {
        "@id": "way/313985696",
        "shop": "supermarket",
        "@geometry": "center"
      },
      "geometry": {
        "type": "Point",
        "coordinates": [
          126.8371418,
          37.534423
        ]
      },
      "id": "way/313985696"
    },
    {
      "type": "Feature",
      "properties": {
        "@id": "way/316768774",
        "addr:city": "서울특별시",
        "addr:district": "마포구",
        "addr:housenumber": "76",
        "addr:postcode": "04020",
        "addr:street": "월드컵로3길",
        "addr:subdistrict": "합정동",
        "building": "yes",
        "building:levels": "3",
        "name": "도매마트",
        "shop": "supermarket",
        "source": "survey",
        "@geometry": "center"
      },
      "geometry": {
        "type": "Point",
        "coordinates": [
          126.9086199,
          37.5495409
        ]
      },
      "id": "way/316768774"
    },
    {
      "type": "Feature",
      "properties": {
        "@id": "way/350153610",
        "addr:city": "서울특별시",
        "addr:district": "강남구",
        "addr:subdistrict": "개포동",
        "building": "yes",
        "name": "고객사랑마트",
        "shop": "supermarket",
        "@geometry": "center"
      },
      "geometry": {
        "type": "Point",
        "coordinates": [
          127.0503954,
          37.4752519
        ]
      },
      "id": "way/350153610"
    },
    {
      "type": "Feature",
      "properties": {
        "@id": "way/356163876",
        "addr:city": "서울특별시",
        "addr:district": "마포구",
        "addr:housenumber": "29",
        "addr:postcode": "04053",
        "addr:street": "와우산로29가길",
        "addr:subdistrict": "서교동",
        "building": "yes",
        "shop": "supermarket",
        "@geometry": "center"
      },
      "geometry": {
        "type": "Point",
        "coordinates": [
          126.9278933,
          37.5540096
        ]
      },
      "id": "way/356163876"
    },
    {
      "type": "Feature",
      "properties": {
        "@id": "way/357032587",
        "addr:city": "서울특별시",
        "addr:district": "강남구",
        "addr:subdistrict": "청담동",
        "building": "yes",
        "name": "MJ Mart",
        "shop": "supermarket",
        "@geometry": "center"
      },
      "geometry": {
        "type": "Point",
        "coordinates": [
          127.0484774,
          37.5250104
        ]
      },
      "id": "way/357032587"
    },
    {
      "type": "Feature",
      "properties": {
        "@id": "way/357305699",
        "building": "yes",
        "name": "Well-being Mart",
        "shop": "supermarket",
        "@geometry": "center"
      },
      "geometry": {
        "type": "Point",
        "coordinates": [
          126.9892694,
          37.5390347
        ]
      },
      "id": "way/357305699"
    },
    {
      "type": "Feature",
      "properties": {
        "@id": "way/357572216",
        "addr:city": "서울특별시",
        "addr:district": "광진구",
        "addr:subdistrict": "화양동",
        "building": "yes",
        "name": "Mini Super",
        "shop": "supermarket",
        "@geometry": "center"
      },
      "geometry": {
        "type": "Point",
        "coordinates": [
          127.0700457,
          37.5424114
        ]
      },
      "id": "way/357572216"
    },
    {
      "type": "Feature",
      "properties": {
        "@id": "way/357669368",
        "building": "yes",
        "name": "MINISTOP",
        "name:en": "MINISTOP",
        "shop": "supermarket",
        "@geometry": "center"
      },
      "geometry": {
        "type": "Point",
        "coordinates": [
          126.9456862,
          37.5571829
        ]
      },
      "id": "way/357669368"
    },
    {
      "type": "Feature",
      "properties": {
        "@id": "node/368639743",
        "addr:city": "서울특별시",
        "addr:district": "중랑구",
        "addr:housenumber": "94",
        "addr:postcode": "02066",
        "addr:street": "용마산로118길",
        "addr:subdistrict": "망우동",
        "atm": "yes",
        "brand": "하나로마트",
        "brand:en": "Hanaro Mart",
        "brand:ko": "하나로마트",
        "brand:wikidata": "Q12590611",
        "brand:wikipedia": "ko:농협유통",
        "name": "하나로마트",
        "name:en": "Dong Seoul Nonghyup hanaro market",
        "name:ko": "하나로마트",
        "name:ko-Latn": "Dongseoullonghyeophanaromart",
        "opening_hours": "Mo-Su 09:00-21:00",
        "operator": "농협",
        "phone": "+82 2-433-8022",
        "shop": "supermarket",
        "website": "http://dongseoul.nonghyup.com"
      },
      "geometry": {
        "type": "Point",
        "coordinates": [
          127.105612,
          37.601073
        ]
      },
      "id": "node/368639743"
    },
    {
      "type": "Feature",
      "properties": {
        "@id": "node/368664189",
        "name": "합정마트",
        "name:en": "Hapjeong Mart",
        "name:ko": "합정마트",
        "name:ko-Latn": "Hapjeongmateu",
        "shop": "supermarket"
      },
      "geometry": {
        "type": "Point",
        "coordinates": [
          126.913275,
          37.5482413
        ]
      },
      "id": "node/368664189"
    },
    {
      "type": "Feature",
      "properties": {
        "@id": "node/368664206",
        "name": "현대마트",
        "name:en": "Hyeondae Mart",
        "name:ko": "현대마트",
        "name:ko-Latn": "Hyeondaemateu",
        "shop": "supermarket"
      },
      "geometry": {
        "type": "Point",
        "coordinates": [
          127.136952,
          37.555781
        ]
      },
      "id": "node/368664206"
    },
    {
      "type": "Feature",
      "properties": {
        "@id": "node/368664220",
        "name": "도영마트",
        "name:en": "Doyeong Mart",
        "name:ko": "도영마트",
        "name:ko-Latn": "Doyeongmateu",
        "shop": "supermarket"
      },
      "geometry": {
        "type": "Point",
        "coordinates": [
          126.916971,
          37.600775
        ]
      },
      "id": "node/368664220"
    },
    {
      "type": "Feature",
      "properties": {
        "@id": "node/368664229",
        "name": "정할인마트 이경시장",
        "name:en": "Igyeong Mart",
        "name:ko": "이경마트",
        "name:ko-Latn": "Igyeongmateu",
        "shop": "supermarket"
      },
      "geometry": {
        "type": "Point",
        "coordinates": [
          127.0662236,
          37.5944761
        ]
      },
      "id": "node/368664229"
    },
    {
      "type": "Feature",
      "properties": {
        "@id": "node/368664239",
        "name": "아이엠마트",
        "name:en": "Aiem Mart",
        "name:ko": "아이엠마트",
        "name:ko-Latn": "Aiemmateu",
        "shop": "supermarket"
      },
      "geometry": {
        "type": "Point",
        "coordinates": [
          126.898005,
          37.526554
        ]
      },
      "id": "node/368664239"
    },
    {
      "type": "Feature",
      "properties": {
        "@id": "node/368664242",
        "name": "미도파마트",
        "name:en": "Midopa Mart",
        "name:ko": "미도파마트",
        "name:ko-Latn": "Midopamateu",
        "shop": "supermarket"
      },
      "geometry": {
        "type": "Point",
        "coordinates": [
          126.904929,
          37.483165
        ]
      },
      "id": "node/368664242"
    },
    {
      "type": "Feature",
      "properties": {
        "@id": "node/368664249",
        "name": "우리들마트",
        "name:en": "Urideul Mart",
        "name:ko": "우리들마트",
        "name:ko-Latn": "Urideulmateu",
        "shop": "supermarket"
      },
      "geometry": {
        "type": "Point",
        "coordinates": [
          126.938334,
          37.512694
        ]
      },
      "id": "node/368664249"
    },
    {
      "type": "Feature",
      "properties": {
        "@id": "node/368664260",
        "name": "동원할인마트",
        "name:en": "Dongwon Retail Shop",
        "name:ko": "동원할인마트",
        "name:ko-Latn": "Dongwonhalinmateu",
        "shop": "supermarket"
      },
      "geometry": {
        "type": "Point",
        "coordinates": [
          127.0926805,
          37.5902966
        ]
      },
      "id": "node/368664260"
    },
    {
      "type": "Feature",
      "properties": {
        "@id": "node/368664262",
        "name": "하나우리마트",
        "name:en": "Hanauri Mart",
        "name:ja": "ハナウリマート",
        "name:ko": "하나우리마트",
        "name:ko-Latn": "Hanaurimateu",
        "shop": "supermarket"
      },
      "geometry": {
        "type": "Point",
        "coordinates": [
          126.9962099,
          37.5245151
        ]
      },
      "id": "node/368664262"
    },
    {
      "type": "Feature",
      "properties": {
        "@id": "node/368664269",
        "name": "제일할인마트",
        "name:en": "Jeil Retail Shop",
        "name:ko": "제일할인마트",
        "name:ko-Latn": "Jeilhalinmateu",
        "shop": "supermarket"
      },
      "geometry": {
        "type": "Point",
        "coordinates": [
          126.962984,
          37.597799
        ]
      },
      "id": "node/368664269"
    },
    {
      "type": "Feature",
      "properties": {
        "@id": "node/368664272",
        "name": "서경할인마트",
        "name:en": "Seogyeong Retail Shop",
        "name:ko": "서경할인마트",
        "name:ko-Latn": "Seogyeonghalinmateu",
        "shop": "supermarket"
      },
      "geometry": {
        "type": "Point",
        "coordinates": [
          127.015113,
          37.608239
        ]
      },
      "id": "node/368664272"
    },
    {
      "type": "Feature",
      "properties": {
        "@id": "node/368664279",
        "name": "우성할인마트",
        "name:en": "Useong Retail Shop",
        "name:ko": "우성할인마트",
        "name:ko-Latn": "Useonghalinmateu",
        "shop": "supermarket"
      },
      "geometry": {
        "type": "Point",
        "coordinates": [
          127.13102,
          37.543229
        ]
      },
      "id": "node/368664279"
    },
    {
      "type": "Feature",
      "properties": {
        "@id": "node/368664284",
        "name": "삼보할인마트",
        "name:en": "Sambo Retail Shop",
        "name:ko": "삼보할인마트",
        "name:ko-Latn": "Sambohalinmateu",
        "shop": "supermarket"
      },
      "geometry": {
        "type": "Point",
        "coordinates": [
          126.850053,
          37.548761
        ]
      },
      "id": "node/368664284"
    },
    {
      "type": "Feature",
      "properties": {
        "@id": "node/368664295",
        "name": "문정할인마트",
        "name:en": "Munjeong Retail Shop",
        "name:ko": "문정할인마트",
        "name:ko-Latn": "Munjeonghalinmateu",
        "shop": "supermarket"
      },
      "geometry": {
        "type": "Point",
        "coordinates": [
          127.13294,
          37.493626
        ]
      },
      "id": "node/368664295"
    },
    {
      "type": "Feature",
      "properties": {
        "@id": "node/368664300",
        "name": "매일마트",
        "name:en": "Maeil Mart",
        "name:ko": "매일마트",
        "name:ko-Latn": "Maeilmateu",
        "shop": "supermarket"
      },
      "geometry": {
        "type": "Point",
        "coordinates": [
          127.148998,
          37.554642
        ]
      },
      "id": "node/368664300"
    },
    {
      "type": "Feature",
      "properties": {
        "@id": "node/368664309",
        "name": "가락농산물마트",
        "name:en": "Garangnongsanmul Mart",
        "name:ko": "가락농산물마트",
        "name:ko-Latn": "Garangnongsanmulmateu",
        "shop": "supermarket"
      },
      "geometry": {
        "type": "Point",
        "coordinates": [
          127.080212,
          37.598896
        ]
      },
      "id": "node/368664309"
    },
    {
      "type": "Feature",
      "properties": {
        "@id": "node/368664316",
        "name": "새천년할인마트",
        "name:en": "Saecheonnyeon Retail Shop",
        "name:ko": "새천년할인마트",
        "name:ko-Latn": "Saecheonnyeonhalinmateu",
        "shop": "supermarket"
      },
      "geometry": {
        "type": "Point",
        "coordinates": [
          126.9014089,
          37.4636426
        ]
      },
      "id": "node/368664316"
    },
    {
      "type": "Feature",
      "properties": {
        "@id": "node/368664320",
        "name": "(주)신세계마트",
        "name:en": "Sinsegye Mart",
        "name:ko": "(주)신세계마트",
        "name:ko-Latn": "( Ju ) Sinsegyemateu",
        "shop": "supermarket"
      },
      "geometry": {
        "type": "Point",
        "coordinates": [
          127.105317,
          37.516715
        ]
      },
      "id": "node/368664320"
    },
    {
      "type": "Feature",
      "properties": {
        "@id": "node/368664327",
        "name": "일화할인마트",
        "name:en": "Ilhwa Retail Shop",
        "name:ko": "일화할인마트",
        "name:ko-Latn": "Ilhwahalinmateu",
        "shop": "supermarket"
      },
      "geometry": {
        "type": "Point",
        "coordinates": [
          126.851323,
          37.549314
        ]
      },
      "id": "node/368664327"
    },
    {
      "type": "Feature",
      "properties": {
        "@id": "node/368664337",
        "name": "다산마트",
        "name:en": "Dasan Mart",
        "name:ko": "다산마트",
        "name:ko-Latn": "Dasanmateu",
        "shop": "supermarket"
      },
      "geometry": {
        "type": "Point",
        "coordinates": [
          127.109344,
          37.512934
        ]
      },
      "id": "node/368664337"
    },
    {
      "type": "Feature",
      "properties": {
        "@id": "node/368664342",
        "name": "강서농협 하나로마트",
        "name:en": "Gangseo National Agricultural Cooperative Federation Hanaro Mart",
        "name:ja": "江西農協 ハナロマート",
        "name:ko": "강서농협 하나로마트",
        "name:ko-Latn": "Gangseononghyeop Hanaromateu",
        "shop": "supermarket"
      },
      "geometry": {
        "type": "Point",
        "coordinates": [
          126.8122007,
          37.5767656
        ]
      },
      "id": "node/368664342"
    },
    {
      "type": "Feature",
      "properties": {
        "@id": "node/368664352",
        "name": "대한마트",
        "name:en": "Daehan Mart",
        "name:ko": "대한마트",
        "name:ko-Latn": "Daehanmateu",
        "shop": "supermarket"
      },
      "geometry": {
        "type": "Point",
        "coordinates": [
          126.827402,
          37.535255
        ]
      },
      "id": "node/368664352"
    },
    {
      "type": "Feature",
      "properties": {
        "@id": "node/368664362",
        "name": "벅스마트",
        "name:en": "Beokseu Mart",
        "name:ko": "벅스마트",
        "name:ko-Latn": "Beokseumateu",
        "shop": "supermarket"
      },
      "geometry": {
        "type": "Point",
        "coordinates": [
          126.920499,
          37.602726
        ]
      },
      "id": "node/368664362"
    },
    {
      "type": "Feature",
      "properties": {
        "@id": "node/368664372",
        "name": "배드민턴마트",
        "name:en": "Baedeuminteon Mart",
        "name:ko": "배드민턴마트",
        "name:ko-Latn": "Baedeuminteonmateu",
        "shop": "supermarket"
      },
      "geometry": {
        "type": "Point",
        "coordinates": [
          126.91555,
          37.601879
        ]
      },
      "id": "node/368664372"
    },
    {
      "type": "Feature",
      "properties": {
        "@id": "node/368664381",
        "bus": "yes",
        "name": "153안경마트;신도림동.구로역(중)",
        "name:en": "153 Angyeong Mart;Sindorimdong.Guro Station",
        "name:ko": "153안경마트;신도림동.구로역(중)",
        "name:ko-Latn": "153 Angyeongmateu;Sindorimdong.Guroyeok",
        "public_transport": "stop_position",
        "ref": "17004",
        "shop": "supermarket"
      },
      "geometry": {
        "type": "Point",
        "coordinates": [
          126.8831901,
          37.5054489
        ]
      },
      "id": "node/368664381"
    },
    {
      "type": "Feature",
      "properties": {
        "@id": "node/368664392",
        "name": "한길마트",
        "name:en": "Hangil Mart",
        "name:ko": "한길마트",
        "name:ko-Latn": "Hangilmateu",
        "shop": "supermarket"
      },
      "geometry": {
        "type": "Point",
        "coordinates": [
          127.153644,
          37.561155
        ]
      },
      "id": "node/368664392"
    },
    {
      "type": "Feature",
      "properties": {
        "@id": "node/368664393",
        "name": "한솔마트",
        "name:en": "Hansol Mart",
        "name:ko": "한솔마트",
        "name:ko-Latn": "Hansolmateu",
        "shop": "supermarket"
      },
      "geometry": {
        "type": "Point",
        "coordinates": [
          126.873952,
          37.549054
        ]
      },
      "id": "node/368664393"
    },
    {
      "type": "Feature",
      "properties": {
        "@id": "node/368664402",
        "name": "케이마트",
        "name:en": "Kei Mart",
        "name:ko": "케이마트",
        "name:ko-Latn": "Keimateu",
        "shop": "supermarket"
      },
      "geometry": {
        "type": "Point",
        "coordinates": [
          127.1038835,
          37.5991947
        ]
      },
      "id": "node/368664402"
    },
    {
      "type": "Feature",
      "properties": {
        "@id": "node/368664404",
        "name": "세림무지개마트",
        "name:en": "Serimmujigae Mart",
        "name:ko": "세림무지개마트",
        "name:ko-Latn": "Serimmujigaemateu",
        "shop": "supermarket"
      },
      "geometry": {
        "type": "Point",
        "coordinates": [
          127.04498,
          37.564977
        ]
      },
      "id": "node/368664404"
    },
    {
      "type": "Feature",
      "properties": {
        "@id": "node/368664411",
        "shop": "supermarket"
      },
      "geometry": {
        "type": "Point",
        "coordinates": [
          127.082583,
          37.646593
        ]
      },
      "id": "node/368664411"
    },
    {
      "type": "Feature",
      "properties": {
        "@id": "node/368664413",
        "name": "대신동 그린마트",
        "name:en": "Daesindong Green Mart",
        "name:ko": "대신동 그린마트",
        "name:ko-Latn": "Daesindong Geurinmateu",
        "shop": "supermarket"
      },
      "geometry": {
        "type": "Point",
        "coordinates": [
          126.9464865,
          37.5675472
        ]
      },
      "id": "node/368664413"
    },
    {
      "type": "Feature",
      "properties": {
        "@id": "node/368664421",
        "name": "현대종합마트",
        "name:en": "Hyeondaejonghap Mart",
        "name:ko": "현대종합마트",
        "name:ko-Latn": "Hyeondaejonghammateu",
        "shop": "supermarket"
      },
      "geometry": {
        "type": "Point",
        "coordinates": [
          126.897724,
          37.555721
        ]
      },
      "id": "node/368664421"
    },
    {
      "type": "Feature",
      "properties": {
        "@id": "node/368664424",
        "name": "이지마트",
        "name:en": "Iji Mart",
        "name:ko": "이지마트",
        "name:ko-Latn": "Ijimateu",
        "shop": "supermarket"
      },
      "geometry": {
        "type": "Point",
        "coordinates": [
          126.9597755,
          37.5337265
        ]
      },
      "id": "node/368664424"
    },
    {
      "type": "Feature",
      "properties": {
        "@id": "node/368664428",
        "name": "피자마트",
        "name:en": "Pija Mart",
        "name:ko": "피자마트",
        "name:ko-Latn": "Pijamateu",
        "shop": "supermarket"
      },
      "geometry": {
        "type": "Point",
        "coordinates": [
          126.834152,
          37.539278
        ]
      },
      "id": "node/368664428"
    },
    {
      "type": "Feature",
      "properties": {
        "@id": "node/368664430",
        "name": "바코드마트",
        "shop": "supermarket"
      },
      "geometry": {
        "type": "Point",
        "coordinates": [
          126.895265,
          37.483652
        ]
      },
      "id": "node/368664430"
    },
    {
      "type": "Feature",
      "properties": {
        "@id": "node/368664436",
        "name": "동양트래블마트",
        "name:en": "Dongyangteuraebeul Mart",
        "name:ko": "동양트래블마트",
        "name:ko-Latn": "Dongyangteuraebeulmateu",
        "shop": "supermarket"
      },
      "geometry": {
        "type": "Point",
        "coordinates": [
          126.9554539,
          37.5570614
        ]
      },
      "id": "node/368664436"
    },
    {
      "type": "Feature",
      "properties": {
        "@id": "node/368664441",
        "name": "씨마트",
        "name:en": "Ssi Mart",
        "name:ko": "씨마트",
        "name:ko-Latn": "Ssimateu",
        "shop": "supermarket"
      },
      "geometry": {
        "type": "Point",
        "coordinates": [
          127.012345,
          37.636889
        ]
      },
      "id": "node/368664441"
    },
    {
      "type": "Feature",
      "properties": {
        "@id": "node/368664451",
        "name": "대부마트",
        "name:en": "Daebu Mart",
        "name:ko": "대부마트",
        "name:ko-Latn": "Daebumateu",
        "shop": "supermarket"
      },
      "geometry": {
        "type": "Point",
        "coordinates": [
          127.015627,
          37.6398
        ]
      },
      "id": "node/368664451"
    },
    {
      "type": "Feature",
      "properties": {
        "@id": "node/368664462",
        "name": "스페셜마트",
        "name:en": "Seupesyeol Mart",
        "name:ko": "스페셜마트",
        "name:ko-Latn": "Seupesyeolmateu",
        "shop": "supermarket"
      },
      "geometry": {
        "type": "Point",
        "coordinates": [
          126.959348,
          37.539194
        ]
      },
      "id": "node/368664462"
    },
    {
      "type": "Feature",
      "properties": {
        "@id": "node/368664467",
        "name": "에어컨마트",
        "name:en": "Eeokeon Mart",
        "name:ko": "에어컨마트",
        "name:ko-Latn": "Eeokeonmateu",
        "shop": "supermarket"
      },
      "geometry": {
        "type": "Point",
        "coordinates": [
          126.930212,
          37.570554
        ]
      },
      "id": "node/368664467"
    },
    {
      "type": "Feature",
      "properties": {
        "@id": "node/368664472",
        "name": "아이사랑안경마트",
        "name:en": "Aisarangangyeong Mart",
        "name:ko": "아이사랑안경마트",
        "name:ko-Latn": "Aisarangangyeongmateu",
        "shop": "supermarket"
      },
      "geometry": {
        "type": "Point",
        "coordinates": [
          127.074044,
          37.639696
        ]
      },
      "id": "node/368664472"
    },
    {
      "type": "Feature",
      "properties": {
        "@id": "node/368664477",
        "name": "에어마트",
        "name:en": "Eeo Mart",
        "name:ja": "エオマート",
        "name:ko": "에어마트",
        "name:ko-Latn": "Eeomateu",
        "shop": "supermarket"
      },
      "geometry": {
        "type": "Point",
        "coordinates": [
          127.01546,
          37.493995
        ]
      },
      "id": "node/368664477"
    },
    {
      "type": "Feature",
      "properties": {
        "@id": "node/368664482",
        "name": "유기올마트",
        "name:en": "Yugiol Mart",
        "name:ko": "유기올마트",
        "name:ko-Latn": "Yugiolmateu",
        "shop": "supermarket"
      },
      "geometry": {
        "type": "Point",
        "coordinates": [
          126.907923,
          37.480273
        ]
      },
      "id": "node/368664482"
    },
    {
      "type": "Feature",
      "properties": {
        "@id": "node/368664487",
        "name": "댄스마트",
        "name:en": "Daenseu Mart",
        "name:ko": "댄스마트",
        "name:ko-Latn": "Daenseumateu",
        "shop": "supermarket"
      },
      "geometry": {
        "type": "Point",
        "coordinates": [
          127.0107727,
          37.4842174
        ]
      },
      "id": "node/368664487"
    },
    {
      "type": "Feature",
      "properties": {
        "@id": "node/368664492",
        "name": "부동산마트",
        "name:en": "Budongsan Mart",
        "name:ko": "부동산마트",
        "name:ko-Latn": "Budongsanmateu",
        "shop": "supermarket"
      },
      "geometry": {
        "type": "Point",
        "coordinates": [
          127.024497,
          37.500937
        ]
      },
      "id": "node/368664492"
    },
    {
      "type": "Feature",
      "properties": {
        "@id": "node/368664499",
        "name": "벼룩중고마트",
        "name:en": "Byeorukjunggo Mart",
        "name:ko": "벼룩중고마트",
        "name:ko-Latn": "Byeorukjunggomateu",
        "shop": "supermarket"
      },
      "geometry": {
        "type": "Point",
        "coordinates": [
          126.97523,
          37.476667
        ]
      },
      "id": "node/368664499"
    },
    {
      "type": "Feature",
      "properties": {
        "@id": "node/368664514",
        "name": "참사랑건강마트",
        "name:en": "Chamsaranggeongang Mart",
        "name:ko": "참사랑건강마트",
        "name:ko-Latn": "Chamsaranggeongangmateu",
        "shop": "supermarket"
      },
      "geometry": {
        "type": "Point",
        "coordinates": [
          127.071517,
          37.626024
        ]
      },
      "id": "node/368664514"
    },
    {
      "type": "Feature",
      "properties": {
        "@id": "node/368664522",
        "name": "아이사랑안경마트",
        "name:en": "Aisarangangyeong Mart",
        "name:ko": "아이사랑안경마트",
        "name:ko-Latn": "Aisarangangyeongmateu",
        "shop": "supermarket"
      },
      "geometry": {
        "type": "Point",
        "coordinates": [
          127.035427,
          37.611452
        ]
      },
      "id": "node/368664522"
    },
    {
      "type": "Feature",
      "properties": {
        "@id": "node/368664533",
        "name": "매일마트",
        "name:en": "Maeil Mart",
        "name:ko": "매일마트",
        "name:ko-Latn": "Maeilmateu",
        "shop": "supermarket"
      },
      "geometry": {
        "type": "Point",
        "coordinates": [
          127.0932,
          37.588849
        ]
      },
      "id": "node/368664533"
    },
    {
      "type": "Feature",
      "properties": {
        "@id": "node/368664550",
        "name": "모노마트",
        "name:en": "Mono Mart",
        "name:ko": "모노마트",
        "name:ko-Latn": "Monomateu",
        "shop": "supermarket"
      },
      "geometry": {
        "type": "Point",
        "coordinates": [
          127.089526,
          37.499761
        ]
      },
      "id": "node/368664550"
    },
    {
      "type": "Feature",
      "properties": {
        "@id": "node/368664559",
        "name": "수미트마트",
        "name:en": "Sumiteu Mart",
        "name:ko": "수미트마트",
        "name:ko-Latn": "Sumiteumateu",
        "shop": "supermarket"
      },
      "geometry": {
        "type": "Point",
        "coordinates": [
          127.042039,
          37.635557
        ]
      },
      "id": "node/368664559"
    },
    {
      "type": "Feature",
      "properties": {
        "@id": "node/368664570",
        "name": "테스터마트",
        "name:en": "Teseuteo Mart",
        "name:ko": "테스터마트",
        "name:ko-Latn": "Teseuteomateu",
        "shop": "supermarket"
      },
      "geometry": {
        "type": "Point",
        "coordinates": [
          126.846992,
          37.545415
        ]
      },
      "id": "node/368664570"
    },
    {
      "type": "Feature",
      "properties": {
        "@id": "node/368664583",
        "name": "엠디마트",
        "name:en": "Emdi Mart",
        "name:ko": "엠디마트",
        "name:ko-Latn": "Emdimateu",
        "shop": "supermarket"
      },
      "geometry": {
        "type": "Point",
        "coordinates": [
          126.856258,
          37.530762
        ]
      },
      "id": "node/368664583"
    },
    {
      "type": "Feature",
      "properties": {
        "@id": "node/368664594",
        "name": "인터넷마트",
        "name:en": "Inteonet Mart",
        "name:ko": "인터넷마트",
        "name:ko-Latn": "Inteonetmateu",
        "shop": "supermarket"
      },
      "geometry": {
        "type": "Point",
        "coordinates": [
          126.963347,
          37.533966
        ]
      },
      "id": "node/368664594"
    },
    {
      "type": "Feature",
      "properties": {
        "@id": "node/368664617",
        "name": "부동산마트",
        "name:en": "Budongsan Mart",
        "name:ko": "부동산마트",
        "name:ko-Latn": "Budongsanmateu",
        "shop": "supermarket"
      },
      "geometry": {
        "type": "Point",
        "coordinates": [
          126.995007,
          37.488408
        ]
      },
      "id": "node/368664617"
    },
    {
      "type": "Feature",
      "properties": {
        "@id": "node/368664626",
        "name": "대화마트",
        "name:en": "Daehwa Mart",
        "name:ko": "대화마트",
        "name:ko-Latn": "Daehwamateu",
        "shop": "supermarket"
      },
      "geometry": {
        "type": "Point",
        "coordinates": [
          126.9252941,
          37.5633527
        ]
      },
      "id": "node/368664626"
    },
    {
      "type": "Feature",
      "properties": {
        "@id": "node/368664654",
        "name": "카마트",
        "name:en": "Car Mart",
        "name:ja": "カーマート",
        "name:ko": "카마트",
        "name:ko-Latn": "Kamateu",
        "shop": "supermarket"
      },
      "geometry": {
        "type": "Point",
        "coordinates": [
          127.066204,
          37.559722
        ]
      },
      "id": "node/368664654"
    },
    {
      "type": "Feature",
      "properties": {
        "@id": "node/368664661",
        "name": "우드마트",
        "name:en": "Udeu Mart",
        "name:ko": "우드마트",
        "name:ko-Latn": "Udeumateu",
        "shop": "supermarket"
      },
      "geometry": {
        "type": "Point",
        "coordinates": [
          127.084994,
          37.592193
        ]
      },
      "id": "node/368664661"
    },
    {
      "type": "Feature",
      "properties": {
        "@id": "node/368664684",
        "name": "아줌마트",
        "name:en": "Ajum Mart",
        "name:ko": "아줌마트",
        "name:ko-Latn": "Ajummateu",
        "shop": "supermarket"
      },
      "geometry": {
        "type": "Point",
        "coordinates": [
          126.954865,
          37.533621
        ]
      },
      "id": "node/368664684"
    },
    {
      "type": "Feature",
      "properties": {
        "@id": "node/368664695",
        "name": "이지마트",
        "name:en": "Iji Mart",
        "name:ko": "이지마트",
        "name:ko-Latn": "Ijimateu",
        "shop": "supermarket"
      },
      "geometry": {
        "type": "Point",
        "coordinates": [
          127.014713,
          37.562908
        ]
      },
      "id": "node/368664695"
    },
    {
      "type": "Feature",
      "properties": {
        "@id": "node/368664709",
        "name": "자연애할인마트",
        "name:en": "Jayeonae Retail Shop",
        "name:ko": "자연애할인마트",
        "name:ko-Latn": "Jayeonaehalinmateu",
        "shop": "supermarket"
      },
      "geometry": {
        "type": "Point",
        "coordinates": [
          126.911343,
          37.60768
        ]
      },
      "id": "node/368664709"
    },
    {
      "type": "Feature",
      "properties": {
        "@id": "node/368664751",
        "name": "건어물마트",
        "name:en": "Geoneomul Mart",
        "name:ko": "건어물마트",
        "name:ko-Latn": "Geoneomulmateu",
        "shop": "supermarket"
      },
      "geometry": {
        "type": "Point",
        "coordinates": [
          127.13872,
          37.549738
        ]
      },
      "id": "node/368664751"
    },
    {
      "type": "Feature",
      "properties": {
        "@id": "node/368664772",
        "name": "텍스마트",
        "name:en": "Tekseu Mart",
        "name:ko": "텍스마트",
        "name:ko-Latn": "Tekseumateu",
        "shop": "supermarket"
      },
      "geometry": {
        "type": "Point",
        "coordinates": [
          127.06766,
          37.565528
        ]
      },
      "id": "node/368664772"
    },
    {
      "type": "Feature",
      "properties": {
        "@id": "node/368664802",
        "name": "사이버마트",
        "name:en": "Cyber Mart",
        "name:ko": "사이버마트",
        "name:ko-Latn": "Saibeomateu",
        "shop": "supermarket"
      },
      "geometry": {
        "type": "Point",
        "coordinates": [
          127.030244,
          37.608391
        ]
      },
      "id": "node/368664802"
    },
    {
      "type": "Feature",
      "properties": {
        "@id": "node/368664815",
        "name": "웰리스패션마트",
        "name:en": "Welliseupaesyeon Mart",
        "name:ko": "웰리스패션마트",
        "name:ko-Latn": "Welliseupaesyeonmateu",
        "shop": "supermarket"
      },
      "geometry": {
        "type": "Point",
        "coordinates": [
          127.0709024,
          37.5492699
        ]
      },
      "id": "node/368664815"
    },
    {
      "type": "Feature",
      "properties": {
        "@id": "node/368664835",
        "name": "타올마트",
        "name:en": "Taol Mart",
        "name:ko": "타올마트",
        "name:ko-Latn": "Taolmateu",
        "shop": "supermarket"
      },
      "geometry": {
        "type": "Point",
        "coordinates": [
          127.09171,
          37.541699
        ]
      },
      "id": "node/368664835"
    },
    {
      "type": "Feature",
      "properties": {
        "@id": "node/368664854",
        "name": "UPC마트",
        "name:en": "UPC Mart",
        "name:ko": "UPC마트",
        "name:ko-Latn": "UPC Mateu",
        "shop": "supermarket"
      },
      "geometry": {
        "type": "Point",
        "coordinates": [
          126.962496,
          37.534112
        ]
      },
      "id": "node/368664854"
    },
    {
      "type": "Feature",
      "properties": {
        "@id": "node/368664863",
        "name": "휴플레이스 천호화장품마트",
        "name:en": "Hyupeulleiseu Cheonhohwajangpum Mart",
        "name:ko": "휴플레이스 천호화장품마트",
        "name:ko-Latn": "Hyupeulleiseu Cheonhohwajangpummateu",
        "shop": "supermarket"
      },
      "geometry": {
        "type": "Point",
        "coordinates": [
          127.126325,
          37.538229
        ]
      },
      "id": "node/368664863"
    },
    {
      "type": "Feature",
      "properties": {
        "@id": "node/368664874",
        "name": "e라벨마트",
        "name:en": "e Rabel Mart",
        "name:ko-Latn": "e Rabelmateu",
        "shop": "supermarket"
      },
      "geometry": {
        "type": "Point",
        "coordinates": [
          126.894405,
          37.484491
        ]
      },
      "id": "node/368664874"
    },
    {
      "type": "Feature",
      "properties": {
        "@id": "node/368664883",
        "name": "코사마트",
        "name:en": "Kosa Mart",
        "name:ko": "코사마트",
        "name:ko-Latn": "Kosamateu",
        "shop": "supermarket"
      },
      "geometry": {
        "type": "Point",
        "coordinates": [
          127.022024,
          37.573458
        ]
      },
      "id": "node/368664883"
    },
    {
      "type": "Feature",
      "properties": {
        "@id": "node/368664896",
        "name": "가나종합마트",
        "name:en": "Ganajonghap Mart",
        "name:ko": "가나종합마트",
        "name:ko-Latn": "Ganajonghammateu",
        "shop": "supermarket"
      },
      "geometry": {
        "type": "Point",
        "coordinates": [
          127.022155,
          37.631952
        ]
      },
      "id": "node/368664896"
    },
    {
      "type": "Feature",
      "properties": {
        "@id": "node/368664943",
        "name": "농협쌀마트",
        "name:en": "National Agricultural Cooperative Federation Ssal Mart",
        "name:ko": "농협쌀마트",
        "name:ko-Latn": "Nonghyeopssalmateu",
        "shop": "supermarket"
      },
      "geometry": {
        "type": "Point",
        "coordinates": [
          126.842659,
          37.541624
        ]
      },
      "id": "node/368664943"
    },
    {
      "type": "Feature",
      "properties": {
        "@id": "node/368664952",
        "name": "가나안할인마트",
        "name:en": "Ganaan Retail Shop",
        "name:ko": "가나안할인마트",
        "name:ko-Latn": "Ganaanhalinmateu",
        "shop": "supermarket"
      },
      "geometry": {
        "type": "Point",
        "coordinates": [
          126.901805,
          37.456337
        ]
      },
      "id": "node/368664952"
    },
    {
      "type": "Feature",
      "properties": {
        "@id": "node/368664963",
        "name": "그랜드씨마트",
        "name:en": "Grand Ssi Mart",
        "name:ko": "그랜드씨마트",
        "name:ko-Latn": "Geuraendeussimateu",
        "shop": "supermarket"
      },
      "geometry": {
        "type": "Point",
        "coordinates": [
          127.13451,
          37.55068
        ]
      },
      "id": "node/368664963"
    },
    {
      "type": "Feature",
      "properties": {
        "@id": "node/368664974",
        "name": "플러스마트",
        "name:en": "Peulleoseu Mart",
        "name:ko": "플러스마트",
        "name:ko-Latn": "Peulleoseumateu",
        "shop": "supermarket"
      },
      "geometry": {
        "type": "Point",
        "coordinates": [
          126.951702,
          37.5376486
        ]
      },
      "id": "node/368664974"
    },
    {
      "type": "Feature",
      "properties": {
        "@id": "node/368664979",
        "name": "현대마트",
        "name:en": "Hyeondae Mart",
        "name:ko": "현대마트",
        "name:ko-Latn": "Hyeondaemateu",
        "shop": "supermarket"
      },
      "geometry": {
        "type": "Point",
        "coordinates": [
          126.8927231,
          37.4968134
        ]
      },
      "id": "node/368664979"
    },
    {
      "type": "Feature",
      "properties": {
        "@id": "node/368664989",
        "name": "현대할인마트",
        "name:en": "Hyeondae Retail Shop",
        "name:ko": "현대할인마트",
        "name:ko-Latn": "Hyeondaehalinmateu",
        "shop": "supermarket"
      },
      "geometry": {
        "type": "Point",
        "coordinates": [
          127.01752,
          37.585451
        ]
      },
      "id": "node/368664989"
    },
    {
      "type": "Feature",
      "properties": {
        "@id": "node/368665006",
        "name": "케이씨씨마트",
        "name:en": "Keississi Mart",
        "name:ko": "케이씨씨마트",
        "name:ko-Latn": "Keississimateu",
        "shop": "supermarket"
      },
      "geometry": {
        "type": "Point",
        "coordinates": [
          127.141172,
          37.540204
        ]
      },
      "id": "node/368665006"
    },
    {
      "type": "Feature",
      "properties": {
        "@id": "node/368665015",
        "name": "문구마트",
        "name:en": "Mungu Mart",
        "name:ko": "문구마트",
        "name:ko-Latn": "Mungumateu",
        "shop": "supermarket"
      },
      "geometry": {
        "type": "Point",
        "coordinates": [
          126.9193087,
          37.612078
        ]
      },
      "id": "node/368665015"
    },
    {
      "type": "Feature",
      "properties": {
        "@id": "node/368665016",
        "name": "티나마트",
        "name:en": "Tina Mart",
        "name:ko": "티나마트",
        "name:ko-Latn": "Tinamateu",
        "shop": "supermarket"
      },
      "geometry": {
        "type": "Point",
        "coordinates": [
          126.845643,
          37.560252
        ]
      },
      "id": "node/368665016"
    },
    {
      "type": "Feature",
      "properties": {
        "@id": "node/368665035",
        "name": "판촉물마트",
        "name:en": "Panchongmul Mart",
        "name:ko": "판촉물마트",
        "name:ko-Latn": "Panchongmulmateu",
        "shop": "supermarket"
      },
      "geometry": {
        "type": "Point",
        "coordinates": [
          127.054656,
          37.581356
        ]
      },
      "id": "node/368665035"
    },
    {
      "type": "Feature",
      "properties": {
        "@id": "node/368665045",
        "name": "무지개마트",
        "name:en": "Mujigae Mart",
        "name:ko": "무지개마트",
        "name:ko-Latn": "Mujigaemateu",
        "shop": "supermarket"
      },
      "geometry": {
        "type": "Point",
        "coordinates": [
          127.038827,
          37.562765
        ]
      },
      "id": "node/368665045"
    },
    {
      "type": "Feature",
      "properties": {
        "@id": "node/368665053",
        "name": "아울렛 디씨 마트",
        "name:en": "Aullet Dissi Mart",
        "name:ko": "아울렛 디씨 마트",
        "name:ko-Latn": "Aullet Dissi Mateu",
        "shop": "supermarket"
      },
      "geometry": {
        "type": "Point",
        "coordinates": [
          126.842578,
          37.518311
        ]
      },
      "id": "node/368665053"
    },
    {
      "type": "Feature",
      "properties": {
        "@id": "node/368665057",
        "name": "인테리어디씨마트",
        "name:en": "Interieodissi Mart",
        "name:ko": "인테리어디씨마트",
        "name:ko-Latn": "Interieodissimateu",
        "shop": "supermarket"
      },
      "geometry": {
        "type": "Point",
        "coordinates": [
          126.903928,
          37.493681
        ]
      },
      "id": "node/368665057"
    },
    {
      "type": "Feature",
      "properties": {
        "@id": "node/368665063",
        "name": "도원세일마트",
        "name:en": "Dowonseil Mart",
        "name:ko": "도원세일마트",
        "name:ko-Latn": "Dowonseilmateu",
        "shop": "supermarket"
      },
      "geometry": {
        "type": "Point",
        "coordinates": [
          126.8528827,
          37.535154
        ]
      },
      "id": "node/368665063"
    },
    {
      "type": "Feature",
      "properties": {
        "@id": "node/368665067",
        "name": "근영마트",
        "name:en": "Geunyeong Mart",
        "name:ko": "근영마트",
        "name:ko-Latn": "Geunyeongmateu",
        "shop": "supermarket"
      },
      "geometry": {
        "type": "Point",
        "coordinates": [
          127.100456,
          37.500341
        ]
      },
      "id": "node/368665067"
    },
    {
      "type": "Feature",
      "properties": {
        "@id": "node/368665072",
        "name": "가구마트",
        "name:en": "Gagu Mart",
        "name:ko": "가구마트",
        "name:ko-Latn": "Gagumateu",
        "shop": "supermarket"
      },
      "geometry": {
        "type": "Point",
        "coordinates": [
          126.941761,
          37.590492
        ]
      },
      "id": "node/368665072"
    },
    {
      "type": "Feature",
      "properties": {
        "@id": "node/368665085",
        "brand": "롯데마트",
        "brand:ko": "롯데마트",
        "brand:wikidata": "Q326715",
        "brand:wikipedia": "ko:롯데마트",
        "check_date": "2024-01-12",
        "name": "롯데마트",
        "name:en": "Lotte Mart",
        "name:ko": "롯데마트",
        "name:ko-Latn": "Beijikhauseu Songpa GS Mateu",
        "shop": "supermarket"
      },
      "geometry": {
        "type": "Point",
        "coordinates": [
          127.117738,
          37.491756
        ]
      },
      "id": "node/368665085"
    },
    {
      "type": "Feature",
      "properties": {
        "@id": "node/368665102",
        "name": "키폰마트",
        "name:en": "Kipon Mart",
        "name:ko": "키폰마트",
        "name:ko-Latn": "Kiponmateu",
        "shop": "supermarket"
      },
      "geometry": {
        "type": "Point",
        "coordinates": [
          127.10767,
          37.514859
        ]
      },
      "id": "node/368665102"
    },
    {
      "type": "Feature",
      "properties": {
        "@id": "node/368665108",
        "name": "네일마트",
        "name:en": "Neil Mart",
        "name:ja": "ネイルマート",
        "name:ko": "네일마트",
        "name:ko-Latn": "Neilmateu",
        "shop": "supermarket"
      },
      "geometry": {
        "type": "Point",
        "coordinates": [
          126.97633,
          37.560149
        ]
      },
      "id": "node/368665108"
    },
    {
      "type": "Feature",
      "properties": {
        "@id": "node/368665122",
        "name": "펫토이 애완동물마트",
        "name:en": "Pettoi Aewan Animal Mart",
        "name:ko": "펫토이 애완동물마트",
        "name:ko-Latn": "Pettoi Aewandongmulmateu",
        "shop": "supermarket"
      },
      "geometry": {
        "type": "Point",
        "coordinates": [
          127.001611,
          37.533512
        ]
      },
      "id": "node/368665122"
    },
    {
      "type": "Feature",
      "properties": {
        "@id": "node/368665135",
        "name": "코리아마트",
        "name:en": "Korea Mart",
        "name:ko": "코리아마트",
        "name:ko-Latn": "Koriamateu",
        "shop": "supermarket"
      },
      "geometry": {
        "type": "Point",
        "coordinates": [
          127.0495327,
          37.5416298
        ]
      },
      "id": "node/368665135"
    },
    {
      "type": "Feature",
      "properties": {
        "@id": "node/368665172",
        "name": "디디엘마트",
        "name:en": "Didiel Mart",
        "name:ko": "디디엘마트",
        "name:ko-Latn": "Didielmateu",
        "shop": "supermarket"
      },
      "geometry": {
        "type": "Point",
        "coordinates": [
          127.086342,
          37.557834
        ]
      },
      "id": "node/368665172"
    },
    {
      "type": "Feature",
      "properties": {
        "@id": "node/368665187",
        "name": "오케이마트",
        "name:en": "OK Mart",
        "name:ko": "오케이마트",
        "name:ko-Latn": "Okeimateu",
        "shop": "supermarket"
      },
      "geometry": {
        "type": "Point",
        "coordinates": [
          127.081723,
          37.620652
        ]
      },
      "id": "node/368665187"
    },
    {
      "type": "Feature",
      "properties": {
        "@id": "node/368665207",
        "name": "화로마트",
        "name:en": "Hwaro Mart",
        "name:ko": "화로마트",
        "name:ko-Latn": "Hwaromateu",
        "shop": "supermarket"
      },
      "geometry": {
        "type": "Point",
        "coordinates": [
          126.843556,
          37.54293
        ]
      },
      "id": "node/368665207"
    },
    {
      "type": "Feature",
      "properties": {
        "@id": "node/368665217",
        "name": "디비마트",
        "name:en": "Dibi Mart",
        "name:ko": "디비마트",
        "name:ko-Latn": "Dibimateu",
        "shop": "supermarket"
      },
      "geometry": {
        "type": "Point",
        "coordinates": [
          127.028812,
          37.642793
        ]
      },
      "id": "node/368665217"
    },
    {
      "type": "Feature",
      "properties": {
        "@id": "node/368665222",
        "name": "하나인쇄 명함할인마트",
        "name:en": "Hanainswae Myeongham Retail Shop",
        "name:ko": "하나인쇄 명함할인마트",
        "name:ko-Latn": "Hanainswae Myeonghamhalinmateu",
        "shop": "supermarket"
      },
      "geometry": {
        "type": "Point",
        "coordinates": [
          127.087191,
          37.588479
        ]
      },
      "id": "node/368665222"
    },
    {
      "type": "Feature",
      "properties": {
        "@id": "node/368665228",
        "name": "가구마트",
        "name:en": "Gagu Mart",
        "name:ko": "가구마트",
        "name:ko-Latn": "Gagumateu",
        "shop": "supermarket"
      },
      "geometry": {
        "type": "Point",
        "coordinates": [
          126.941192,
          37.513819
        ]
      },
      "id": "node/368665228"
    },
    {
      "type": "Feature",
      "properties": {
        "@id": "node/368665237",
        "name": "제노마트",
        "name:en": "Jeno Mart",
        "name:ko": "제노마트",
        "name:ko-Latn": "Jenomateu",
        "shop": "supermarket"
      },
      "geometry": {
        "type": "Point",
        "coordinates": [
          127.022544,
          37.505003
        ]
      },
      "id": "node/368665237"
    },
    {
      "type": "Feature",
      "properties": {
        "@id": "node/368665249",
        "name": "드럼마트",
        "name:en": "Deureom Mart",
        "name:ko": "드럼마트",
        "name:ko-Latn": "Deureommateu",
        "shop": "supermarket"
      },
      "geometry": {
        "type": "Point",
        "coordinates": [
          126.987731,
          37.572593
        ]
      },
      "id": "node/368665249"
    },
    {
      "type": "Feature",
      "properties": {
        "@id": "node/368665253",
        "name": "플라워마트",
        "name:en": "Flower Mart",
        "name:ko": "플라워마트",
        "name:ko-Latn": "Peullawomateu",
        "shop": "supermarket"
      },
      "geometry": {
        "type": "Point",
        "coordinates": [
          127.04862,
          37.460041
        ]
      },
      "id": "node/368665253"
    },
    {
      "type": "Feature",
      "properties": {
        "@id": "node/368665264",
        "name": "우주마트",
        "name:en": "Uju Mart",
        "name:ko": "우주마트",
        "name:ko-Latn": "Ujumateu",
        "shop": "supermarket"
      },
      "geometry": {
        "type": "Point",
        "coordinates": [
          127.0960134,
          37.5355315
        ]
      },
      "id": "node/368665264"
    },
    {
      "type": "Feature",
      "properties": {
        "@id": "node/368665273",
        "name": "부광미용할인마트",
        "name:en": "Bugwangmiyong Retail Shop",
        "name:ko": "부광미용할인마트",
        "name:ko-Latn": "Bugwangmiyonghalinmateu",
        "shop": "supermarket"
      },
      "geometry": {
        "type": "Point",
        "coordinates": [
          127.137141,
          37.500064
        ]
      },
      "id": "node/368665273"
    },
    {
      "type": "Feature",
      "properties": {
        "@id": "node/368665274",
        "name": "자전거마트",
        "name:en": "Jajeongeo Mart",
        "name:ko": "자전거마트",
        "name:ko-Latn": "Jajeongeomateu",
        "shop": "supermarket"
      },
      "geometry": {
        "type": "Point",
        "coordinates": [
          127.123485,
          37.532297
        ]
      },
      "id": "node/368665274"
    },
    {
      "type": "Feature",
      "properties": {
        "@id": "node/368665281",
        "name": "비데마트",
        "name:en": "Bide Mart",
        "name:ko": "비데마트",
        "name:ko-Latn": "Bidemateu",
        "shop": "supermarket"
      },
      "geometry": {
        "type": "Point",
        "coordinates": [
          126.990254,
          37.494567
        ]
      },
      "id": "node/368665281"
    },
    {
      "type": "Feature",
      "properties": {
        "@id": "node/368665290",
        "name": "한양 벽지마트",
        "name:en": "Hanyang Byeokji Mart",
        "name:ko": "한양 벽지마트",
        "name:ko-Latn": "Hanyang Byeokjimateu",
        "shop": "supermarket"
      },
      "geometry": {
        "type": "Point",
        "coordinates": [
          126.875002,
          37.518326
        ]
      },
      "id": "node/368665290"
    },
    {
      "type": "Feature",
      "properties": {
        "@id": "node/368665299",
        "name": "랜스마트",
        "name:en": "Raenseu Mart",
        "name:ko": "랜스마트",
        "name:ko-Latn": "Raenseumateu",
        "shop": "supermarket"
      },
      "geometry": {
        "type": "Point",
        "coordinates": [
          126.959797,
          37.533701
        ]
      },
      "id": "node/368665299"
    },
    {
      "type": "Feature",
      "properties": {
        "@id": "node/368665310",
        "name": "정수기마트",
        "name:en": "Jeongsugi Mart",
        "name:ko": "정수기마트",
        "name:ko-Latn": "Jeongsugimateu",
        "shop": "supermarket"
      },
      "geometry": {
        "type": "Point",
        "coordinates": [
          127.018374,
          37.638535
        ]
      },
      "id": "node/368665310"
    },
    {
      "type": "Feature",
      "properties": {
        "@id": "node/368665317",
        "name": "비데마트",
        "name:en": "Bide Mart",
        "name:ko": "비데마트",
        "name:ko-Latn": "Bidemateu",
        "shop": "supermarket"
      },
      "geometry": {
        "type": "Point",
        "coordinates": [
          126.992727,
          37.484775
        ]
      },
      "id": "node/368665317"
    },
    {
      "type": "Feature",
      "properties": {
        "@id": "node/368665322",
        "name": "분유마트",
        "name:en": "Bunyu Mart",
        "name:ko": "분유마트",
        "name:ko-Latn": "Bunyumateu",
        "shop": "supermarket"
      },
      "geometry": {
        "type": "Point",
        "coordinates": [
          126.94905,
          37.536769
        ]
      },
      "id": "node/368665322"
    },
    {
      "type": "Feature",
      "properties": {
        "@id": "node/368665333",
        "name": "타운마트",
        "name:en": "Town Mart",
        "name:ko": "타운마트",
        "name:ko-Latn": "Taunmateu",
        "shop": "supermarket"
      },
      "geometry": {
        "type": "Point",
        "coordinates": [
          126.859127,
          37.525185
        ]
      },
      "id": "node/368665333"
    },
    {
      "type": "Feature",
      "properties": {
        "@id": "node/368665341",
        "name": "로얄비데마트",
        "name:en": "Royalbide Mart",
        "name:ko": "로얄비데마트",
        "name:ko-Latn": "Royalbidemateu",
        "shop": "supermarket"
      },
      "geometry": {
        "type": "Point",
        "coordinates": [
          126.9902694,
          37.494557
        ]
      },
      "id": "node/368665341"
    },
    {
      "type": "Feature",
      "properties": {
        "@id": "node/368665345",
        "name": "스카이마트",
        "name:en": "Sky Mart",
        "name:ko": "스카이마트",
        "name:ko-Latn": "Seukaimateu",
        "shop": "supermarket"
      },
      "geometry": {
        "type": "Point",
        "coordinates": [
          127.006626,
          37.611078
        ]
      },
      "id": "node/368665345"
    },
    {
      "type": "Feature",
      "properties": {
        "@id": "node/368665357",
        "name": "베스트DC아울렛",
        "name:en": "Best DC Outlet",
        "name:ko": "베스트DC아울렛",
        "shop": "supermarket"
      },
      "geometry": {
        "type": "Point",
        "coordinates": [
          126.9425321,
          37.4820862
        ]
      },
      "id": "node/368665357"
    },
    {
      "type": "Feature",
      "properties": {
        "@id": "node/368665379",
        "name": "고려자판기할인마트",
        "name:en": "Goryeojapangi Retail Shop",
        "name:ko": "고려자판기할인마트",
        "name:ko-Latn": "Goryeojapangihalinmateu",
        "shop": "supermarket"
      },
      "geometry": {
        "type": "Point",
        "coordinates": [
          127.100783,
          37.501397
        ]
      },
      "id": "node/368665379"
    },
    {
      "type": "Feature",
      "properties": {
        "@id": "node/368665383",
        "name": "보일러할인마트",
        "name:en": "Boilleo Retail Shop",
        "name:ko": "보일러할인마트",
        "name:ko-Latn": "Boilleohalinmateu",
        "shop": "supermarket"
      },
      "geometry": {
        "type": "Point",
        "coordinates": [
          126.923535,
          37.61291
        ]
      },
      "id": "node/368665383"
    },
    {
      "type": "Feature",
      "properties": {
        "@id": "node/368665391",
        "name": "그랜드씨마트",
        "name:en": "Grand Ssi Mart",
        "name:ko": "그랜드씨마트",
        "name:ko-Latn": "Geuraendeussimateu",
        "shop": "supermarket"
      },
      "geometry": {
        "type": "Point",
        "coordinates": [
          127.13451,
          37.550689
        ]
      },
      "id": "node/368665391"
    },
    {
      "type": "Feature",
      "properties": {
        "@id": "node/368665403",
        "name": "헬스디씨마트",
        "name:en": "Health DC Mart",
        "name:ja": "ヘルスDCマート",
        "name:ko": "헬스디씨마트",
        "name:ko-Latn": "Helseudissimateu",
        "shop": "supermarket"
      },
      "geometry": {
        "type": "Point",
        "coordinates": [
          127.028404,
          37.557363
        ]
      },
      "id": "node/368665403"
    },
    {
      "type": "Feature",
      "properties": {
        "@id": "node/368665406",
        "name": "파워마트",
        "name:en": "Pawo Mart",
        "name:ko": "파워마트",
        "name:ko-Latn": "Pawomateu",
        "shop": "supermarket"
      },
      "geometry": {
        "type": "Point",
        "coordinates": [
          127.022895,
          37.630759
        ]
      },
      "id": "node/368665406"
    },
    {
      "type": "Feature",
      "properties": {
        "@id": "node/368665424",
        "name": "차이나마트",
        "name:en": "Chaina Mart",
        "name:ko": "차이나마트",
        "name:ko-Latn": "Chainamateu",
        "shop": "supermarket"
      },
      "geometry": {
        "type": "Point",
        "coordinates": [
          126.857196,
          37.529356
        ]
      },
      "id": "node/368665424"
    },
    {
      "type": "Feature",
      "properties": {
        "@id": "node/368665428",
        "name": "오케이할인마트",
        "name:en": "OK Retail Shop",
        "name:ko": "오케이할인마트",
        "name:ko-Latn": "Okeihalinmateu",
        "shop": "supermarket"
      },
      "geometry": {
        "type": "Point",
        "coordinates": [
          127.135454,
          37.532592
        ]
      },
      "id": "node/368665428"
    },
    {
      "type": "Feature",
      "properties": {
        "@id": "node/368665438",
        "name": "신도림열쇠마트",
        "name:en": "Sindorimyeolsoe Mart",
        "name:ko": "신도림열쇠마트",
        "name:ko-Latn": "Sindorimyeolsoemateu",
        "shop": "supermarket",
        "wheelchair": "no"
      },
      "geometry": {
        "type": "Point",
        "coordinates": [
          126.884361,
          37.511287
        ]
      },
      "id": "node/368665438"
    },
    {
      "type": "Feature",
      "properties": {
        "@id": "node/368665445",
        "name": "정진가전마트",
        "name:en": "Jeongjingajeon Mart",
        "name:ko": "정진가전마트",
        "name:ko-Latn": "Jeongjingajeonmateu",
        "shop": "supermarket"
      },
      "geometry": {
        "type": "Point",
        "coordinates": [
          127.0955272,
          37.5357242
        ]
      },
      "id": "node/368665445"
    },
    {
      "type": "Feature",
      "properties": {
        "@id": "node/368665450",
        "name": "용산마트",
        "name:en": "Yongsan Mart",
        "name:ko": "용산마트",
        "name:ko-Latn": "Yongsanmateu",
        "shop": "supermarket"
      },
      "geometry": {
        "type": "Point",
        "coordinates": [
          126.961466,
          37.534112
        ]
      },
      "id": "node/368665450"
    },
    {
      "type": "Feature",
      "properties": {
        "@id": "node/368665461",
        "name": "웅진코웨이 마트",
        "name:en": "Ungjinkowei Mart",
        "name:ko": "웅진코웨이 마트",
        "name:ko-Latn": "Ungjinkowei Mateu",
        "shop": "supermarket"
      },
      "geometry": {
        "type": "Point",
        "coordinates": [
          126.997102,
          37.572817
        ]
      },
      "id": "node/368665461"
    },
    {
      "type": "Feature",
      "properties": {
        "@id": "node/368665477",
        "name": "제사마트",
        "name:en": "Jesa Mart",
        "name:ko": "제사마트",
        "name:ko-Latn": "Jesamateu",
        "shop": "supermarket"
      },
      "geometry": {
        "type": "Point",
        "coordinates": [
          127.127348,
          37.484312
        ]
      },
      "id": "node/368665477"
    },
    {
      "type": "Feature",
      "properties": {
        "@id": "node/368665485",
        "addr:city": "서울특별시",
        "addr:country": "KR",
        "addr:district": "동작구",
        "addr:subdistrict": "상도동",
        "name": "현대이삿짐마트",
        "name:en": "Hyeondaeisasjim Mart",
        "name:ko": "현대이삿짐마트",
        "name:ko-Latn": "Hyeondaeisasjimmateu",
        "shop": "supermarket"
      },
      "geometry": {
        "type": "Point",
        "coordinates": [
          126.931195,
          37.4985
        ]
      },
      "id": "node/368665485"
    },
    {
      "type": "Feature",
      "properties": {
        "@id": "node/368665493",
        "name": "동양마트",
        "name:en": "Dongyang Mart",
        "name:ko": "동양마트",
        "name:ko-Latn": "Dongyangmateu",
        "shop": "supermarket"
      },
      "geometry": {
        "type": "Point",
        "coordinates": [
          126.8882347,
          37.5172446
        ]
      },
      "id": "node/368665493"
    },
    {
      "type": "Feature",
      "properties": {
        "@id": "node/368665496",
        "name": "판촉물쇼핑마트",
        "name:en": "Panchongmul Shopping Mart",
        "name:ko": "판촉물쇼핑마트",
        "name:ko-Latn": "Panchongmulsyopingmateu",
        "shop": "supermarket"
      },
      "geometry": {
        "type": "Point",
        "coordinates": [
          127.026746,
          37.643046
        ]
      },
      "id": "node/368665496"
    },
    {
      "type": "Feature",
      "properties": {
        "@id": "node/368665505",
        "name": "기성키친마트",
        "name:en": "Giseongkichin Mart",
        "name:ko": "기성키친마트",
        "name:ko-Latn": "Giseongkichinmateu",
        "shop": "supermarket"
      },
      "geometry": {
        "type": "Point",
        "coordinates": [
          127.003628,
          37.566555
        ]
      },
      "id": "node/368665505"
    },
    {
      "type": "Feature",
      "properties": {
        "@id": "node/368665506",
        "name": "퓨마마트",
        "name:en": "Pyuma Mart",
        "name:ko": "퓨마마트",
        "name:ko-Latn": "Pyumamateu",
        "shop": "supermarket"
      },
      "geometry": {
        "type": "Point",
        "coordinates": [
          127.018548,
          37.506944
        ]
      },
      "id": "node/368665506"
    },
    {
      "type": "Feature",
      "properties": {
        "@id": "node/368665515",
        "name": "크리스탈마트",
        "name:en": "Crystal Mart",
        "name:ja": "クリスタルマート",
        "name:ko": "크리스탈마트",
        "name:ko-Latn": "Keuriseutalmateu",
        "shop": "supermarket"
      },
      "geometry": {
        "type": "Point",
        "coordinates": [
          126.9909779,
          37.5671442
        ]
      },
      "id": "node/368665515"
    },
    {
      "type": "Feature",
      "properties": {
        "@id": "node/368665517",
        "name": "웨딩마트",
        "name:en": "Weding Mart",
        "name:ko": "웨딩마트",
        "name:ko-Latn": "Wedingmateu",
        "shop": "supermarket"
      },
      "geometry": {
        "type": "Point",
        "coordinates": [
          127.002755,
          37.575118
        ]
      },
      "id": "node/368665517"
    },
    {
      "type": "Feature",
      "properties": {
        "@id": "node/368665530",
        "addr:city": "서울특별시",
        "addr:country": "KR",
        "addr:district": "동작구",
        "addr:subdistrict": "상도동",
        "name": "중고마트",
        "name:en": "Junggo Mart",
        "name:ko": "중고마트",
        "name:ko-Latn": "Junggomateu",
        "shop": "supermarket"
      },
      "geometry": {
        "type": "Point",
        "coordinates": [
          126.961559,
          37.494688
        ]
      },
      "id": "node/368665530"
    },
    {
      "type": "Feature",
      "properties": {
        "@id": "node/368665543",
        "name": "청첩장마트",
        "name:en": "Cheongcheopjang Mart",
        "name:ko": "청첩장마트",
        "name:ko-Latn": "Cheongcheopjangmateu",
        "shop": "supermarket"
      },
      "geometry": {
        "type": "Point",
        "coordinates": [
          127.033277,
          37.647155
        ]
      },
      "id": "node/368665543"
    },
    {
      "type": "Feature",
      "properties": {
        "@id": "node/368665548",
        "name": "삼성테마트",
        "name:en": "Samseongte Mart",
        "name:ko": "삼성테마트",
        "name:ko-Latn": "Samseongtemateu",
        "shop": "supermarket"
      },
      "geometry": {
        "type": "Point",
        "coordinates": [
          126.950288,
          37.534013
        ]
      },
      "id": "node/368665548"
    },
    {
      "type": "Feature",
      "properties": {
        "@id": "node/368665559",
        "name": "성인마트",
        "name:en": "Seongin Mart",
        "name:ko": "성인마트",
        "name:ko-Latn": "Seonginmateu",
        "shop": "supermarket"
      },
      "geometry": {
        "type": "Point",
        "coordinates": [
          126.903755,
          37.476856
        ]
      },
      "id": "node/368665559"
    },
    {
      "type": "Feature",
      "properties": {
        "@id": "node/368665568",
        "name": "가야마트",
        "name:en": "Gaya Mart",
        "name:ko": "가야마트",
        "name:ko-Latn": "Gayamateu",
        "shop": "supermarket"
      },
      "geometry": {
        "type": "Point",
        "coordinates": [
          127.0240179,
          37.6055607
        ]
      },
      "id": "node/368665568"
    },
    {
      "type": "Feature",
      "properties": {
        "@id": "node/368665581",
        "name": "홍삼마트",
        "name:en": "Hongsam Mart",
        "name:ko-Latn": "Hongsammateu",
        "shop": "supermarket"
      },
      "geometry": {
        "type": "Point",
        "coordinates": [
          126.948814,
          37.486519
        ]
      },
      "id": "node/368665581"
    },
    {
      "type": "Feature",
      "properties": {
        "@id": "node/368665593",
        "name": "홍삼마트",
        "name:en": "Hongsam Mart",
        "name:ko": "홍삼마트",
        "name:ko-Latn": "Hongsammateu",
        "shop": "supermarket"
      },
      "geometry": {
        "type": "Point",
        "coordinates": [
          126.913316,
          37.59975
        ]
      },
      "id": "node/368665593"
    },
    {
      "type": "Feature",
      "properties": {
        "@id": "node/368665600",
        "name": "중앙마트",
        "name:en": "Jungang Mart",
        "name:ko": "중앙마트",
        "name:ko-Latn": "Jungangmateu",
        "shop": "supermarket"
      },
      "geometry": {
        "type": "Point",
        "coordinates": [
          126.866384,
          37.553271
        ]
      },
      "id": "node/368665600"
    },
    {
      "type": "Feature",
      "properties": {
        "@id": "node/368665604",
        "name": "그린식자재마트",
        "name:en": "Green Sikjajae Mart",
        "name:ko": "그린식자재마트",
        "name:ko-Latn": "Geurinsikjajaemateu",
        "shop": "supermarket"
      },
      "geometry": {
        "type": "Point",
        "coordinates": [
          126.854033,
          37.520134
        ]
      },
      "id": "node/368665604"
    },
    {
      "type": "Feature",
      "properties": {
        "@id": "node/368665616",
        "name": "우리건강마트",
        "name:en": "Urigeongang Mart",
        "name:ko": "우리건강마트",
        "name:ko-Latn": "Urigeongangmateu",
        "shop": "supermarket"
      },
      "geometry": {
        "type": "Point",
        "coordinates": [
          126.842735,
          37.523521
        ]
      },
      "id": "node/368665616"
    },
    {
      "type": "Feature",
      "properties": {
        "@id": "node/368665628",
        "name": "백산식자재마트",
        "name:en": "Baeksansikjajae Mart",
        "name:ko": "백산식자재마트",
        "name:ko-Latn": "Baeksansikjajaemateu",
        "shop": "supermarket"
      },
      "geometry": {
        "type": "Point",
        "coordinates": [
          126.904282,
          37.576282
        ]
      },
      "id": "node/368665628"
    },
    {
      "type": "Feature",
      "properties": {
        "@id": "node/368665636",
        "name": "효석마트",
        "name:en": "Hyoseok Mart",
        "name:ko": "효석마트",
        "name:ko-Latn": "Hyoseongmateu",
        "shop": "supermarket"
      },
      "geometry": {
        "type": "Point",
        "coordinates": [
          126.831175,
          37.518964
        ]
      },
      "id": "node/368665636"
    },
    {
      "type": "Feature",
      "properties": {
        "@id": "node/368665650",
        "name": "리치마트",
        "name:en": "Richi Mart",
        "name:ko": "리치마트",
        "name:ko-Latn": "Richimateu",
        "shop": "supermarket"
      },
      "geometry": {
        "type": "Point",
        "coordinates": [
          127.140239,
          37.531762
        ]
      },
      "id": "node/368665650"
    },
    {
      "type": "Feature",
      "properties": {
        "@id": "node/368665671",
        "name": "하나마트",
        "name:en": "Hana Mart",
        "name:ko": "하나마트",
        "name:ko-Latn": "Hanamateu",
        "shop": "supermarket"
      },
      "geometry": {
        "type": "Point",
        "coordinates": [
          126.8530766,
          37.5525796
        ]
      },
      "id": "node/368665671"
    },
    {
      "type": "Feature",
      "properties": {
        "@id": "node/368665678",
        "name": "원흥마트",
        "name:en": "Wonheung Mart",
        "name:ko": "원흥마트",
        "name:ko-Latn": "Wonheungmateu",
        "shop": "supermarket"
      },
      "geometry": {
        "type": "Point",
        "coordinates": [
          126.923717,
          37.618399
        ]
      },
      "id": "node/368665678"
    },
    {
      "type": "Feature",
      "properties": {
        "@id": "node/368665688",
        "name": "럭키마트",
        "name:en": "Reokki Mart",
        "name:ko": "럭키마트",
        "name:ko-Latn": "Reokkimateu",
        "shop": "supermarket",
        "wheelchair": "yes"
      },
      "geometry": {
        "type": "Point",
        "coordinates": [
          126.8414879,
          37.5418156
        ]
      },
      "id": "node/368665688"
    },
    {
      "type": "Feature",
      "properties": {
        "@id": "node/368665690",
        "addr:city": "서울특별시",
        "addr:country": "KR",
        "addr:district": "구로구",
        "addr:subdistrict": "오류동",
        "name": "화랑마트",
        "name:en": "Hwarang Mart",
        "name:ko": "화랑마트",
        "name:ko-Latn": "Hwarangmateu",
        "name:zh": "花郎超市",
        "shop": "supermarket"
      },
      "geometry": {
        "type": "Point",
        "coordinates": [
          126.825123,
          37.489329
        ]
      },
      "id": "node/368665690"
    },
    {
      "type": "Feature",
      "properties": {
        "@id": "node/368665702",
        "name": "할인마트",
        "name:en": "Retail Shop",
        "name:ko": "할인마트",
        "name:ko-Latn": "Halinmateu",
        "shop": "supermarket"
      },
      "geometry": {
        "type": "Point",
        "coordinates": [
          126.889551,
          37.45405
        ]
      },
      "id": "node/368665702"
    },
    {
      "type": "Feature",
      "properties": {
        "@id": "node/368665705",
        "name": "해피마트",
        "name:en": "Haepi Mart",
        "name:ja": "ハッピーマート",
        "name:ko": "해피마트",
        "name:ko-Latn": "Haepimateu",
        "shop": "supermarket"
      },
      "geometry": {
        "type": "Point",
        "coordinates": [
          127.00018,
          37.571302
        ]
      },
      "id": "node/368665705"
    },
    {
      "type": "Feature",
      "properties": {
        "@id": "node/368665712",
        "name": "보물마트",
        "name:en": "Bomul Mart",
        "name:ko": "보물마트",
        "name:ko-Latn": "Bomulmateu",
        "shop": "supermarket"
      },
      "geometry": {
        "type": "Point",
        "coordinates": [
          126.909905,
          37.45041
        ]
      },
      "id": "node/368665712"
    },
    {
      "type": "Feature",
      "properties": {
        "@id": "node/368665722",
        "name": "신원마트",
        "name:en": "Sinwon Mart",
        "name:ko": "신원마트",
        "name:ko-Latn": "sin-wonmateu",
        "name:zh": "新原超市",
        "shop": "supermarket"
      },
      "geometry": {
        "type": "Point",
        "coordinates": [
          126.8635954,
          37.4992436
        ]
      },
      "id": "node/368665722"
    },
    {
      "type": "Feature",
      "properties": {
        "@id": "node/368665725",
        "name": "성신마트",
        "name:en": "Seongsin Mart",
        "name:ko": "성신마트",
        "name:ko-Latn": "Seongsinmateu",
        "shop": "supermarket"
      },
      "geometry": {
        "type": "Point",
        "coordinates": [
          126.833494,
          37.522664
        ]
      },
      "id": "node/368665725"
    },
    {
      "type": "Feature",
      "properties": {
        "@id": "node/368665739",
        "name": "프라임마트",
        "name:en": "Prime Mart",
        "name:ko": "프라임마트",
        "name:ko-Latn": "Peuraimmateu",
        "shop": "supermarket",
        "wheelchair": "no"
      },
      "geometry": {
        "type": "Point",
        "coordinates": [
          126.844791,
          37.571481
        ]
      },
      "id": "node/368665739"
    },
    {
      "type": "Feature",
      "properties": {
        "@id": "node/368665744",
        "addr:city": "서울특별시",
        "addr:country": "KR",
        "addr:district": "구로구",
        "addr:subdistrict": "오류동",
        "name": "플러스마트",
        "name:en": "Plus Mart",
        "name:ko": "플러스마트",
        "name:ko-Latn": "Plusmateu",
        "shop": "supermarket"
      },
      "geometry": {
        "type": "Point",
        "coordinates": [
          126.843747,
          37.492351
        ]
      },
      "id": "node/368665744"
    },
    {
      "type": "Feature",
      "properties": {
        "@id": "node/368665755",
        "name": "케이",
        "name:en": "K)마트 (Kei (K) Mart",
        "name:ko": "케이",
        "name:ko-Latn": "Kei (K) Mateu",
        "shop": "supermarket"
      },
      "geometry": {
        "type": "Point",
        "coordinates": [
          126.994204,
          37.48504
        ]
      },
      "id": "node/368665755"
    },
    {
      "type": "Feature",
      "properties": {
        "@id": "node/368665760",
        "name": "우리할인마트",
        "name:en": "Uri Retail Shop",
        "name:ko": "우리할인마트",
        "name:ko-Latn": "Urihalinmateu",
        "shop": "supermarket"
      },
      "geometry": {
        "type": "Point",
        "coordinates": [
          127.040385,
          37.635526
        ]
      },
      "id": "node/368665760"
    },
    {
      "type": "Feature",
      "properties": {
        "@id": "node/368665769",
        "name": "피에스홈마트",
        "name:en": "PS Home Mart",
        "name:ja": "ピーエス ホームマート",
        "name:ko": "피에스홈마트",
        "name:ko-Latn": "Pieseuhommateu",
        "shop": "supermarket"
      },
      "geometry": {
        "type": "Point",
        "coordinates": [
          127.0113127,
          37.5735297
        ]
      },
      "id": "node/368665769"
    },
    {
      "type": "Feature",
      "properties": {
        "@id": "node/368665773",
        "name": "거여할인마트",
        "name:en": "Geoyeo Retail Shop",
        "name:ko": "거여할인마트",
        "name:ko-Latn": "Geoyeohalinmateu",
        "shop": "supermarket"
      },
      "geometry": {
        "type": "Point",
        "coordinates": [
          127.1441947,
          37.4918517
        ]
      },
      "id": "node/368665773"
    },
    {
      "type": "Feature",
      "properties": {
        "@id": "node/368665777",
        "name": "코사마트",
        "name:en": "Kosa Mart",
        "name:ko": "코사마트",
        "name:ko-Latn": "Kosamateu",
        "shop": "supermarket"
      },
      "geometry": {
        "type": "Point",
        "coordinates": [
          126.904207,
          37.470696
        ]
      },
      "id": "node/368665777"
    },
    {
      "type": "Feature",
      "properties": {
        "@id": "node/368665778",
        "name": "하임마트",
        "name:en": "Haim Mart",
        "name:ja": "ハイムマート",
        "name:ko": "하임마트",
        "name:ko-Latn": "Haimmateu",
        "shop": "supermarket"
      },
      "geometry": {
        "type": "Point",
        "coordinates": [
          127.020697,
          37.565905
        ]
      },
      "id": "node/368665778"
    },
    {
      "type": "Feature",
      "properties": {
        "@id": "node/368665793",
        "name": "제일마트",
        "name:en": "Jeil Mart",
        "name:ko": "제일마트",
        "name:ko-Latn": "Jeilmateu",
        "name:zh": "第一超市",
        "shop": "supermarket"
      },
      "geometry": {
        "type": "Point",
        "coordinates": [
          127.0737913,
          37.5586735
        ]
      },
      "id": "node/368665793"
    },
    {
      "type": "Feature",
      "properties": {
        "@id": "node/368665794",
        "name": "현대마트",
        "name:en": "Hyeondae Mart",
        "name:ko": "현대마트",
        "name:ko-Latn": "Hyeondaemateu",
        "shop": "supermarket"
      },
      "geometry": {
        "type": "Point",
        "coordinates": [
          126.8423829,
          37.5555554
        ]
      },
      "id": "node/368665794"
    },
    {
      "type": "Feature",
      "properties": {
        "@id": "node/368665801",
        "name": "이수마트",
        "name:en": "Isu Mart",
        "name:ko": "이수마트",
        "name:ko-Latn": "Isumateu",
        "shop": "supermarket"
      },
      "geometry": {
        "type": "Point",
        "coordinates": [
          127.0372948,
          37.5844904
        ]
      },
      "id": "node/368665801"
    },
    {
      "type": "Feature",
      "properties": {
        "@id": "node/368665816",
        "addr:city": "서울특별시",
        "addr:district": "관악구",
        "addr:housenumber": "27",
        "addr:postcode": "08865",
        "addr:street": "미성길",
        "addr:subdistrict": "신림동",
        "name": "와봐유K마트",
        "name:en": "Wabwayu K Mart",
        "name:ko": "와봐유K마트",
        "shop": "supermarket"
      },
      "geometry": {
        "type": "Point",
        "coordinates": [
          126.915491,
          37.474585
        ]
      },
      "id": "node/368665816"
    },
    {
      "type": "Feature",
      "properties": {
        "@id": "node/368665832",
        "name": "구구마트",
        "name:en": "Gugu Mart",
        "name:ko": "구구마트",
        "name:ko-Latn": "Gugumateu",
        "shop": "supermarket"
      },
      "geometry": {
        "type": "Point",
        "coordinates": [
          127.03189,
          37.668473
        ]
      },
      "id": "node/368665832"
    },
    {
      "type": "Feature",
      "properties": {
        "@id": "node/368665835",
        "name": "365마트",
        "name:en": "365 Mart",
        "name:ko": "365마트",
        "name:ko-Latn": "365 Mateu",
        "shop": "supermarket"
      },
      "geometry": {
        "type": "Point",
        "coordinates": [
          126.932698,
          37.618553
        ]
      },
      "id": "node/368665835"
    },
    {
      "type": "Feature",
      "properties": {
        "@id": "node/368665838",
        "name": "은평마트",
        "name:en": "Eunpyeong Mart",
        "name:ko": "은평마트",
        "name:ko-Latn": "Eunpyeongmateu",
        "shop": "supermarket"
      },
      "geometry": {
        "type": "Point",
        "coordinates": [
          126.9300518,
          37.5601649
        ]
      },
      "id": "node/368665838"
    },
    {
      "type": "Feature",
      "properties": {
        "@id": "node/368665850",
        "name": "오금농산물해피마트",
        "name:en": "Ogeumnongsanmulhaepi Mart",
        "name:ja": "梧琴農産物ハッピーマート",
        "name:ko": "오금농산물해피마트",
        "name:ko-Latn": "Ogeumnongsanmulhaepimateu",
        "shop": "supermarket"
      },
      "geometry": {
        "type": "Point",
        "coordinates": [
          127.133701,
          37.502121
        ]
      },
      "id": "node/368665850"
    },
    {
      "type": "Feature",
      "properties": {
        "@id": "node/368665855",
        "name": "윤경마트",
        "name:en": "Yungyeong Mart",
        "name:ko": "윤경마트",
        "name:ko-Latn": "Yungyeongmateu",
        "shop": "supermarket"
      },
      "geometry": {
        "type": "Point",
        "coordinates": [
          126.939341,
          37.546306
        ]
      },
      "id": "node/368665855"
    },
    {
      "type": "Feature",
      "properties": {
        "@id": "node/368665859",
        "name": "고향마트",
        "name:en": "Gohyang Mart",
        "name:ko": "고향마트",
        "name:ko-Latn": "Gohyangmateu",
        "shop": "supermarket"
      },
      "geometry": {
        "type": "Point",
        "coordinates": [
          127.000889,
          37.535948
        ]
      },
      "id": "node/368665859"
    },
    {
      "type": "Feature",
      "properties": {
        "@id": "node/368665863",
        "name": "홍익마트",
        "name:en": "Hongik Mart",
        "name:ko": "홍익마트",
        "name:ko-Latn": "Hongingmateu",
        "shop": "supermarket"
      },
      "geometry": {
        "type": "Point",
        "coordinates": [
          126.957583,
          37.574926
        ]
      },
      "id": "node/368665863"
    },
    {
      "type": "Feature",
      "properties": {
        "@id": "node/368665869",
        "name": "싱싱마트",
        "name:en": "Singsing Mart",
        "name:ko": "싱싱마트",
        "name:ko-Latn": "Singsingmateu",
        "shop": "supermarket"
      },
      "geometry": {
        "type": "Point",
        "coordinates": [
          126.998696,
          37.497576
        ]
      },
      "id": "node/368665869"
    },
    {
      "type": "Feature",
      "properties": {
        "@id": "node/368665872",
        "name": "허니마트",
        "name:en": "Heoni Mart",
        "name:ko": "허니마트",
        "name:ko-Latn": "Heonimateu",
        "shop": "supermarket"
      },
      "geometry": {
        "type": "Point",
        "coordinates": [
          127.163352,
          37.560575
        ]
      },
      "id": "node/368665872"
    },
    {
      "type": "Feature",
      "properties": {
        "@id": "node/368665879",
        "name": "주공마트",
        "name:en": "Jugong Mart",
        "name:ko": "주공마트",
        "name:ko-Latn": "Jugongmateu",
        "shop": "supermarket"
      },
      "geometry": {
        "type": "Point",
        "coordinates": [
          127.065064,
          37.647321
        ]
      },
      "id": "node/368665879"
    },
    {
      "type": "Feature",
      "properties": {
        "@id": "node/368665896",
        "name": "월곡축산마트",
        "name:en": "Wolgokchuksan Mart",
        "name:ko": "월곡축산마트",
        "name:ko-Latn": "Wolgokchuksanmateu",
        "shop": "supermarket"
      },
      "geometry": {
        "type": "Point",
        "coordinates": [
          127.036147,
          37.607457
        ]
      },
      "id": "node/368665896"
    },
    {
      "type": "Feature",
      "properties": {
        "@id": "node/368665898",
        "name": "일품축산마트",
        "name:en": "Ilpumchuksan Mart",
        "name:ko": "일품축산마트",
        "name:ko-Latn": "Ilpumchuksanmateu",
        "shop": "supermarket"
      },
      "geometry": {
        "type": "Point",
        "coordinates": [
          126.9145532,
          37.6129207
        ]
      },
      "id": "node/368665898"
    },
    {
      "type": "Feature",
      "properties": {
        "@id": "node/368665905",
        "name": "리첸시아마트",
        "name:en": "Richensia Mart",
        "name:ko": "리첸시아마트",
        "name:ko-Latn": "Richensiamateu",
        "shop": "supermarket"
      },
      "geometry": {
        "type": "Point",
        "coordinates": [
          126.93826,
          37.518758
        ]
      },
      "id": "node/368665905"
    },
    {
      "type": "Feature",
      "properties": {
        "@id": "node/368665908",
        "name": "염창동L마트",
        "name:en": "Yeomchangdong L Mart",
        "name:ko": "염창동L마트",
        "name:ko-Latn": "Yeomchangdong L Mateu",
        "shop": "supermarket"
      },
      "geometry": {
        "type": "Point",
        "coordinates": [
          126.876518,
          37.550024
        ]
      },
      "id": "node/368665908"
    },
    {
      "type": "Feature",
      "properties": {
        "@id": "node/368665917",
        "name": "(주)아이마트 (Ai Mart)",
        "name:en": "Ai Mart",
        "name:ja": "アイマート",
        "name:ko": "(주)아이마트",
        "name:ko-Latn": "( Ju ) Aimateu",
        "shop": "supermarket"
      },
      "geometry": {
        "type": "Point",
        "coordinates": [
          126.991105,
          37.530575
        ]
      },
      "id": "node/368665917"
    },
    {
      "type": "Feature",
      "properties": {
        "@id": "node/368665932",
        "name": "양제건강마트",
        "name:en": "Yangjegeongang Mart",
        "name:ko": "양제건강마트",
        "name:ko-Latn": "Yangjegeongangmateu",
        "shop": "supermarket"
      },
      "geometry": {
        "type": "Point",
        "coordinates": [
          127.037933,
          37.578608
        ]
      },
      "id": "node/368665932"
    },
    {
      "type": "Feature",
      "properties": {
        "@id": "node/368665958",
        "name": "한영십자재마트",
        "name:en": "Hanyeongsipjajae Mart",
        "name:ko": "한영십자재마트",
        "name:ko-Latn": "Hanyeongsipjajaemateu",
        "shop": "supermarket"
      },
      "geometry": {
        "type": "Point",
        "coordinates": [
          127.141614,
          37.4956
        ]
      },
      "id": "node/368665958"
    },
    {
      "type": "Feature",
      "properties": {
        "@id": "node/368665968",
        "name": "태광마트",
        "name:en": "Taegwang Mart",
        "name:ko": "태광마트",
        "name:ko-Latn": "Taegwangmateu",
        "shop": "supermarket"
      },
      "geometry": {
        "type": "Point",
        "coordinates": [
          127.076599,
          37.613556
        ]
      },
      "id": "node/368665968"
    },
    {
      "type": "Feature",
      "properties": {
        "@id": "node/368665972",
        "name": "태양마트",
        "name:en": "Taeyang Mart",
        "name:ko": "태양마트",
        "name:ko-Latn": "Taeyangmateu",
        "shop": "supermarket"
      },
      "geometry": {
        "type": "Point",
        "coordinates": [
          126.8702929,
          37.5390018
        ]
      },
      "id": "node/368665972"
    },
    {
      "type": "Feature",
      "properties": {
        "@id": "node/368665976",
        "name": "82마트",
        "name:en": "82 Mart",
        "name:ko": "82마트",
        "name:ko-Latn": "82 Mateu",
        "shop": "supermarket"
      },
      "geometry": {
        "type": "Point",
        "coordinates": [
          127.087016,
          37.554559
        ]
      },
      "id": "node/368665976"
    },
    {
      "type": "Feature",
      "properties": {
        "@id": "node/368665981",
        "name": "스포츠마트",
        "name:en": "Sports Mart",
        "name:ja": "スポーツマート",
        "name:ko": "스포츠마트",
        "name:ko-Latn": "Seupocheumateu",
        "shop": "supermarket"
      },
      "geometry": {
        "type": "Point",
        "coordinates": [
          127.059951,
          37.613227
        ]
      },
      "id": "node/368665981"
    },
    {
      "type": "Feature",
      "properties": {
        "@id": "node/368665992",
        "name": "온마트",
        "name:en": "On Mart",
        "name:ko": "온마트",
        "name:ko-Latn": "Onmateu",
        "shop": "supermarket"
      },
      "geometry": {
        "type": "Point",
        "coordinates": [
          127.058333,
          37.579827
        ]
      },
      "id": "node/368665992"
    },
    {
      "type": "Feature",
      "properties": {
        "@id": "node/368666002",
        "name": "프라임 휘트니스 센터",
        "name:en": "Prime Fitness Center",
        "name:ja": "プライム フィットネスセンター",
        "name:ko": "프라임 휘트니스 센터",
        "name:ko-Latn": "Tekeunohelseumateu",
        "shop": "supermarket"
      },
      "geometry": {
        "type": "Point",
        "coordinates": [
          127.0959139,
          37.535792
        ]
      },
      "id": "node/368666002"
    },
    {
      "type": "Feature",
      "properties": {
        "@id": "node/368666020",
        "name": "행복마트",
        "name:en": "Haengbok Mart",
        "name:ko": "행복마트",
        "name:ko-Latn": "Haengbongmateu",
        "shop": "supermarket"
      },
      "geometry": {
        "type": "Point",
        "coordinates": [
          126.907582,
          37.513811
        ]
      },
      "id": "node/368666020"
    },
    {
      "type": "Feature",
      "properties": {
        "@id": "node/368666026",
        "name:en": "Hanil Mart",
        "name:ko": "한일마트",
        "name:ko-Latn": "Hanilmateu",
        "shop": "supermarket"
      },
      "geometry": {
        "type": "Point",
        "coordinates": [
          126.936012,
          37.550422
        ]
      },
      "id": "node/368666026"
    },
    {
      "type": "Feature",
      "properties": {
        "@id": "node/368666031",
        "name": "정화마트",
        "name:en": "Jeonghwa Mart",
        "name:ko": "정화마트",
        "name:ko-Latn": "Jeonghwamateu",
        "shop": "supermarket"
      },
      "geometry": {
        "type": "Point",
        "coordinates": [
          127.041382,
          37.585187
        ]
      },
      "id": "node/368666031"
    },
    {
      "type": "Feature",
      "properties": {
        "@id": "node/368666039",
        "name": "그린마트",
        "name:en": "Green Mart",
        "name:ko": "그린마트",
        "name:ko-Latn": "Geurinmateu",
        "shop": "supermarket"
      },
      "geometry": {
        "type": "Point",
        "coordinates": [
          127.070465,
          37.655969
        ]
      },
      "id": "node/368666039"
    },
    {
      "type": "Feature",
      "properties": {
        "@id": "node/368666042",
        "name": "대지마트",
        "name:en": "Daeji Mart",
        "name:ko": "대지마트",
        "name:ko-Latn": "Daejimateu",
        "shop": "supermarket"
      },
      "geometry": {
        "type": "Point",
        "coordinates": [
          127.052142,
          37.609073
        ]
      },
      "id": "node/368666042"
    },
    {
      "type": "Feature",
      "properties": {
        "@id": "node/368666059",
        "name": "유천마트",
        "name:en": "Yucheon Mart",
        "name:ko": "유천마트",
        "name:ko-Latn": "Yucheonmateu",
        "shop": "supermarket"
      },
      "geometry": {
        "type": "Point",
        "coordinates": [
          127.124042,
          37.527264
        ]
      },
      "id": "node/368666059"
    },
    {
      "type": "Feature",
      "properties": {
        "@id": "node/368666071",
        "name": "보람마트",
        "name:en": "Boram Mart",
        "name:ja": "ボラムマート",
        "name:ko": "보람마트",
        "name:ko-Latn": "Borammateu",
        "shop": "supermarket"
      },
      "geometry": {
        "type": "Point",
        "coordinates": [
          126.923663,
          37.524483
        ]
      },
      "id": "node/368666071"
    },
    {
      "type": "Feature",
      "properties": {
        "@id": "node/368666074",
        "name": "폼마트",
        "name:en": "Pom Mart",
        "name:ko": "폼마트",
        "name:ko-Latn": "Pommateu",
        "shop": "supermarket"
      },
      "geometry": {
        "type": "Point",
        "coordinates": [
          126.88821,
          37.471349
        ]
      },
      "id": "node/368666074"
    },
    {
      "type": "Feature",
      "properties": {
        "@id": "node/368666082",
        "name": "대호할인마트",
        "shop": "supermarket"
      },
      "geometry": {
        "type": "Point",
        "coordinates": [
          126.955466,
          37.483929
        ]
      },
      "id": "node/368666082"
    },
    {
      "type": "Feature",
      "properties": {
        "@id": "node/368666090",
        "name": "굿데이마트",
        "name:en": "Gutdei Mart",
        "name:ko": "굿데이마트",
        "name:ko-Latn": "Gutdeimateu",
        "shop": "supermarket"
      },
      "geometry": {
        "type": "Point",
        "coordinates": [
          126.922109,
          37.604156
        ]
      },
      "id": "node/368666090"
    },
    {
      "type": "Feature",
      "properties": {
        "@id": "node/368666098",
        "name": "웰빙촌마트",
        "name:en": "Well Being Chon Mart",
        "name:ko": "웰빙촌마트",
        "name:ko-Latn": "Welbingchonmateu",
        "shop": "supermarket"
      },
      "geometry": {
        "type": "Point",
        "coordinates": [
          127.01554,
          37.543919
        ]
      },
      "id": "node/368666098"
    },
    {
      "type": "Feature",
      "properties": {
        "@id": "node/368666101",
        "name": "구의J마트",
        "name:en": "Guui J Mart",
        "name:ko": "구의J마트",
        "name:ko-Latn": "Guui J Mateu",
        "shop": "supermarket"
      },
      "geometry": {
        "type": "Point",
        "coordinates": [
          127.091817,
          37.532887
        ]
      },
      "id": "node/368666101"
    },
    {
      "type": "Feature",
      "properties": {
        "@id": "node/368666108",
        "addr:city": "서울특별시",
        "addr:district": "중랑구",
        "addr:housenumber": "385-1",
        "addr:postcode": "02228",
        "addr:street": "사가정로",
        "addr:subdistrict": "면목동",
        "name": "동서울마트",
        "name:en": "Dong Seoul Mart",
        "name:ja": "東ソウルマート",
        "name:ko": "동서울마트",
        "name:ko-Latn": "Dongseoulmateu",
        "shop": "supermarket"
      },
      "geometry": {
        "type": "Point",
        "coordinates": [
          127.087645,
          37.58094
        ]
      },
      "id": "node/368666108"
    },
    {
      "type": "Feature",
      "properties": {
        "@id": "node/368666110",
        "addr:city": "서울특별시",
        "addr:district": "은평구",
        "addr:housenumber": "313",
        "addr:postcode": "03441",
        "addr:street": "가좌로",
        "addr:subdistrict": "신사동",
        "name": "나들가게 무지개마트",
        "name:en": "Nadeul-Mujigae Mart",
        "name:ko": "나들가게 무지개마트",
        "name:ko-Latn": "Nadeulgaegae Mujigaemateu",
        "shop": "supermarket"
      },
      "geometry": {
        "type": "Point",
        "coordinates": [
          126.9101078,
          37.5955436
        ]
      },
      "id": "node/368666110"
    },
    {
      "type": "Feature",
      "properties": {
        "@id": "node/368666118",
        "name": "헬스기구할인마트",
        "name:en": "Health Machine Retail Shop",
        "name:ja": "健康器具割引マート",
        "name:ko": "헬스기구할인마트",
        "name:ko-Latn": "Helseugiguhalinmateu",
        "shop": "supermarket"
      },
      "geometry": {
        "type": "Point",
        "coordinates": [
          127.054937,
          37.610222
        ]
      },
      "id": "node/368666118"
    },
    {
      "type": "Feature",
      "properties": {
        "@id": "node/368666150",
        "name": "하모니마트",
        "name:en": "Hamoni Mart",
        "name:ko": "하모니마트",
        "name:ko-Latn": "Hamonimateu",
        "shop": "supermarket"
      },
      "geometry": {
        "type": "Point",
        "coordinates": [
          126.946315,
          37.591218
        ]
      },
      "id": "node/368666150"
    },
    {
      "type": "Feature",
      "properties": {
        "@id": "node/368666169",
        "name": "삼우축산마트",
        "name:en": "Samuchuksan Mart",
        "name:ko": "삼우축산마트",
        "name:ko-Latn": "Samuchuksanmateu",
        "shop": "supermarket"
      },
      "geometry": {
        "type": "Point",
        "coordinates": [
          127.021972,
          37.57663
        ]
      },
      "id": "node/368666169"
    },
    {
      "type": "Feature",
      "properties": {
        "@id": "node/368666193",
        "name": "21세기축산마트",
        "name:en": "21 Segichuksan Mart",
        "name:ko": "21세기축산마트",
        "name:ko-Latn": "21 Segichuksanmateu",
        "shop": "supermarket"
      },
      "geometry": {
        "type": "Point",
        "coordinates": [
          126.8864842,
          37.5081754
        ]
      },
      "id": "node/368666193"
    },
    {
      "type": "Feature",
      "properties": {
        "@id": "node/368666195",
        "name": "늘푸른할인마트",
        "name:en": "Neulpureun Retail Shop",
        "name:ko": "늘푸른할인마트",
        "name:ko-Latn": "Neulpureunhalinmateu",
        "shop": "supermarket"
      },
      "geometry": {
        "type": "Point",
        "coordinates": [
          126.831263,
          37.544539
        ]
      },
      "id": "node/368666195"
    },
    {
      "type": "Feature",
      "properties": {
        "@id": "node/368666207",
        "name": "전자마트",
        "name:en": "Jeonja Mart",
        "name:ko": "전자마트",
        "name:ko-Latn": "Jeonjamateu",
        "shop": "supermarket"
      },
      "geometry": {
        "type": "Point",
        "coordinates": [
          127.009455,
          37.607822
        ]
      },
      "id": "node/368666207"
    },
    {
      "type": "Feature",
      "properties": {
        "@id": "node/368666216",
        "name": "C.A마트",
        "name:en": "C.A Mart",
        "name:ko": "C.A마트",
        "name:ko-Latn": "C.A Mateu",
        "shop": "supermarket"
      },